# Seconds of Week            X-ECEF            Y-ECEF            Z-ECEF        VX        VY        VZ     Pitch      Roll       Yaw      GyroBiasX      GyroBiasY      GyroBiasZ      AcceBiasX      AcceBiasY      AcceBiasZ         
#             (s)               (m)               (m)               (m)     (m/s)     (m/s)     (m/s)     (deg)     (deg)     (deg)        (deg/h)        (deg/h)        (deg/h)           (mg)           (mg)           (mg)
     358400.002500      -2267408.160       5008839.446       3222007.963    -0.000     0.000     0.000    0.5120    0.7325   35.9599         0.0000         0.0000         0.0000         0.0000         0.0000         0.0000
     358401.002500      -2267408.171       5008839.450       3222007.968    -0.006     0.008     0.006    0.5065    0.7538   35.9491        -0.0000        -0.0000        -0.0000        -0.0001         0.0001         0.0016
     358402.002500      -2267408.181       5008839.455       3222007.975    -0.006     0.013     0.012    0.5118    0.7355   35.9575         0.0002         0.0005        -0.0000        -0.0008         0.0004         0.0755
     358403.002500      -2267408.184       5008839.460       3222007.978    -0.001     0.017     0.010    0.5300    0.7293   35.9688        -0.0228         0.0184        -0.0005        -0.0052         0.0037         0.3949
     358404.002500      -2267408.192       5008839.465       3222007.979    -0.002     0.015     0.007    0.5224    0.7438   35.9596         0.0061        -0.1358         0.0013        -0.0103         0.0073         0.7682
     358405.002500      -2267408.196       5008839.467       3222007.982     0.001     0.011     0.005    0.5220    0.7340   35.9626         0.1454         0.0476         0.0015        -0.0146         0.0102         1.1091
     358406.002500      -2267408.205       5008839.467       3222007.984    -0.001     0.007     0.004    0.5165    0.7418   35.9591         0.5994        -0.4285         0.0116        -0.0174         0.0117         1.3079
     358407.002500      -2267408.214       5008839.466       3222007.987    -0.004     0.003     0.002    0.5148    0.7445   35.9561         0.9744        -0.5919         0.0178        -0.0191         0.0126         1.4328
     358408.002500      -2267408.221       5008839.470       3222007.992    -0.002     0.002     0.003    0.5130    0.7455   35.9571         0.9175        -0.1824         0.0133        -0.0193         0.0129         1.4670
     358409.002500      -2267408.221       5008839.471       3222007.992     0.003     0.002     0.001    0.5163    0.7390   35.9587         0.1394         0.6031        -0.0038        -0.0197         0.0138         1.5299
     358410.002500      -2267408.224       5008839.477       3222007.996     0.004     0.004     0.001    0.5179    0.7336   35.9613        -0.3729         0.6811        -0.0109        -0.0195         0.0139         1.5246
     358411.002500      -2267408.228       5008839.481       3222007.999     0.002     0.003     0.001    0.5150    0.7385   35.9619        -0.0699         0.0331        -0.0010        -0.0199         0.0140         1.5364
     358412.002500      -2267408.235       5008839.491       3222008.007    -0.002     0.005     0.002    0.5113    0.7437   35.9648         0.1845        -0.6201         0.0083        -0.0196         0.0137         1.5036
     358413.002500      -2267408.239       5008839.494       3222008.011    -0.002     0.003     0.003    0.5089    0.7440   35.9649         0.3766        -0.5264         0.0098        -0.0198         0.0138         1.5191
     358414.002500      -2267408.244       5008839.494       3222008.009    -0.003     0.001     0.001    0.5091    0.7462   35.9680        -0.1967        -0.8943         0.0064        -0.0202         0.0140         1.5479
     358415.002500      -2267408.248       5008839.492       3222008.008    -0.003    -0.001    -0.002    0.5107    0.7440   35.9676        -0.3400        -0.8958         0.0047        -0.0204         0.0142         1.5691
     358416.002500      -2267408.251       5008839.493       3222008.014    -0.002    -0.002     0.002    0.5091    0.7389   35.9641         0.0728        -0.2578         0.0034        -0.0204         0.0142         1.5649
     358417.002500      -2267408.254       5008839.498       3222008.019    -0.001     0.000     0.003    0.5117    0.7388   35.9639        -0.4547        -0.0026        -0.0054        -0.0203         0.0141         1.5544
     358418.002500      -2267408.253       5008839.500       3222008.021     0.001     0.001     0.002    0.5164    0.7381   35.9641        -0.9123         0.2043        -0.0130        -0.0203         0.0141         1.5614
     358419.002500      -2267408.256       5008839.499       3222008.025    -0.002    -0.002     0.003    0.5145    0.7421   35.9663        -0.3220        -0.2507        -0.0014        -0.0204         0.0142         1.5658
     358420.002500      -2267408.255       5008839.498       3222008.023    -0.002    -0.001    -0.000    0.5183    0.7437   35.9648        -0.9038        -0.3676        -0.0075        -0.0204         0.0142         1.5761
     358421.002500      -2267408.258       5008839.498       3222008.027    -0.002    -0.002     0.000    0.5174    0.7416   35.9641        -0.6840        -0.2270        -0.0061        -0.0205         0.0142         1.5763
     358422.002500      -2267408.261       5008839.490       3222008.025    -0.003    -0.006    -0.002    0.5141    0.7455   35.9656        -0.3987        -0.5078        -0.0003        -0.0206         0.0145         1.5953
     358423.002500      -2267408.264       5008839.490       3222008.022    -0.003    -0.004    -0.006    0.5238    0.7416   35.9650        -1.0458        -0.4451        -0.0081        -0.0206         0.0144         1.5989
     358424.002500      -2267408.265       5008839.488       3222008.021    -0.001    -0.004    -0.004    0.5203    0.7392   35.9650        -0.9282        -0.1084        -0.0101        -0.0207         0.0144         1.6017
     358425.002500      -2267408.268       5008839.487       3222008.023     0.000    -0.005    -0.003    0.5182    0.7372   35.9608        -0.7831         0.1026        -0.0105        -0.0208         0.0144         1.5991
     358426.002500      -2267408.269       5008839.489       3222008.024     0.002    -0.002    -0.003    0.5212    0.7360   35.9581        -1.1061         0.2820        -0.0160        -0.0207         0.0143         1.5948
     358427.002500      -2267408.268       5008839.490       3222008.025     0.003    -0.002    -0.004    0.5208    0.7361   35.9582        -1.0579         0.2750        -0.0154        -0.0208         0.0143         1.5971
     358428.002500      -2267408.270       5008839.494       3222008.032     0.001    -0.002    -0.001    0.5185    0.7376   35.9576        -0.6339         0.2018        -0.0095        -0.0208         0.0143         1.5869
     358429.002500      -2267408.270       5008839.496       3222008.033    -0.000    -0.002    -0.003    0.5192    0.7421   35.9594        -0.7345        -0.0525        -0.0081        -0.0207         0.0144         1.5900
     358430.002500      -2267408.269       5008839.501       3222008.037     0.001    -0.001    -0.002    0.5190    0.7406   35.9595        -0.7428         0.1582        -0.0104        -0.0207         0.0143         1.5874
     358431.002500      -2267408.268       5008839.502       3222008.037     0.001    -0.000    -0.004    0.5209    0.7417   35.9574        -0.9492         0.2246        -0.0131        -0.0208         0.0143         1.5921
     358432.002500      -2267408.268       5008839.501       3222008.037    -0.002    -0.004    -0.005    0.5175    0.7403   35.9582        -0.4634        -0.1665        -0.0042        -0.0208         0.0145         1.5980
     358433.002500      -2267408.269       5008839.512       3222008.046     0.000     0.000     0.000    0.5170    0.7368   35.9573        -0.5597         0.2506        -0.0097        -0.0207         0.0143         1.5832
     358434.002500      -2267408.273       5008839.527       3222008.063     0.000     0.003     0.005    0.5154    0.7370   35.9537        -0.3216         0.5251        -0.0106        -0.0207         0.0142         1.5656
     358435.002500      -2267408.278       5008839.541       3222008.073    -0.003     0.006     0.004    0.5172    0.7398   35.9567        -0.5793         0.1856        -0.0090        -0.0205         0.0141         1.5591
     358436.002500      -2267408.280       5008839.549       3222008.084    -0.002     0.005     0.006    0.5159    0.7391   35.9569        -0.3898         0.4662        -0.0108        -0.0206         0.0141         1.5596
     358437.002500      -2267408.282       5008839.553       3222008.088    -0.003     0.004     0.003    0.5180    0.7393   35.9569        -0.4362         0.1480        -0.0071        -0.0206         0.0142         1.5659
     358438.002500      -2267408.282       5008839.558       3222008.097    -0.001     0.004     0.005    0.5154    0.7350   35.9552        -0.3657         0.4973        -0.0109        -0.0206         0.0142         1.5669
     358439.002500      -2267408.280       5008839.562       3222008.096     0.001     0.005     0.000    0.5230    0.7368   35.9584        -0.7876         0.3319        -0.0126        -0.0206         0.0141         1.5739
     358440.002500      -2267408.282       5008839.569       3222008.100    -0.000     0.004     0.000    0.5196    0.7368   35.9567        -0.7072         0.2306        -0.0107        -0.0206         0.0142         1.5737
     358441.002500      -2267408.283       5008839.572       3222008.102     0.001     0.002    -0.000    0.5183    0.7383   35.9573        -0.6369         0.2018        -0.0097        -0.0206         0.0142         1.5782
     358442.002500      -2267408.285       5008839.574       3222008.105    -0.001     0.002    -0.000    0.5174    0.7383   35.9551        -0.4969         0.1471        -0.0078        -0.0206         0.0143         1.5801
     358443.002500      -2267408.287       5008839.573       3222008.108     0.001     0.000     0.000    0.5174    0.7373   35.9557        -0.4176         0.2457        -0.0084        -0.0207         0.0143         1.5841
     358444.002500      -2267408.288       5008839.567       3222008.108     0.003    -0.003     0.000    0.5160    0.7371   35.9551        -0.3204         0.3646        -0.0094        -0.0208         0.0144         1.5922
     358445.002500      -2267408.292       5008839.567       3222008.113     0.002    -0.003    -0.000    0.5166    0.7377   35.9585        -0.3000         0.2845        -0.0081        -0.0208         0.0144         1.5910
     358446.002500      -2267408.297       5008839.571       3222008.117     0.001    -0.001    -0.001    0.5182    0.7390   35.9608        -0.4735         0.0913        -0.0065        -0.0207         0.0143         1.5869
     358447.002500      -2267408.305       5008839.581       3222008.127    -0.001     0.003     0.001    0.5190    0.7401   35.9596        -0.4416         0.1283        -0.0069        -0.0206         0.0143         1.5778
     358448.002500      -2267408.313       5008839.590       3222008.134    -0.002     0.004     0.001    0.5174    0.7464   35.9594        -0.5107         0.1167        -0.0069        -0.0206         0.0142         1.5737
     358449.002500      -2267408.318       5008839.594       3222008.141    -0.002     0.004     0.001    0.5151    0.7445   35.9588        -0.4452         0.2610        -0.0089        -0.0207         0.0143         1.5753
     358450.002500      -2267408.325       5008839.601       3222008.153    -0.003     0.003     0.005    0.5109    0.7404   35.9592        -0.2463         0.3380        -0.0095        -0.0206         0.0143         1.5721
     358451.002500      -2267408.328       5008839.601       3222008.156    -0.002     0.001     0.003    0.5122    0.7417   35.9589        -0.3858         0.3353        -0.0101        -0.0207         0.0143         1.5784
     358452.002500      -2267408.335       5008839.602       3222008.159    -0.004    -0.000     0.002    0.5127    0.7424   35.9623        -0.4091         0.1105        -0.0062        -0.0207         0.0143         1.5822
     358453.002500      -2267408.338       5008839.606       3222008.167    -0.001     0.000     0.004    0.5138    0.7366   35.9613        -0.4471         0.3709        -0.0114        -0.0207         0.0143         1.5815
     358454.002500      -2267408.337       5008839.611       3222008.171     0.000     0.002     0.001    0.5185    0.7363   35.9617        -0.7307         0.4045        -0.0144        -0.0208         0.0143         1.5823
     358455.002500      -2267408.338       5008839.619       3222008.176    -0.001     0.004    -0.000    0.5181    0.7406   35.9609        -0.7835         0.3114        -0.0133        -0.0207         0.0142         1.5804
     358456.002500      -2267408.339       5008839.623       3222008.176    -0.000     0.003    -0.001    0.5184    0.7447   35.9614        -0.8773         0.1873        -0.0124        -0.0207         0.0142         1.5823
     358457.002500      -2267408.338       5008839.624       3222008.178     0.001     0.001    -0.001    0.5172    0.7403   35.9605        -0.7663         0.2908        -0.0130        -0.0208         0.0143         1.5854
     358458.002500      -2267408.339       5008839.628       3222008.186    -0.001    -0.000     0.002    0.5136    0.7422   35.9603        -0.5576         0.2759        -0.0121        -0.0208         0.0143         1.5843
     358459.002500      -2267408.338       5008839.629       3222008.189     0.000     0.000     0.002    0.5150    0.7396   35.9603        -0.6196         0.3207        -0.0129        -0.0208         0.0143         1.5861
     358460.002500      -2267408.340       5008839.633       3222008.192    -0.001    -0.000     0.001    0.5150    0.7440   35.9602        -0.6189         0.1666        -0.0105        -0.0208         0.0143         1.5852
     358461.002500      -2267408.339       5008839.636       3222008.193    -0.000     0.001    -0.002    0.5169    0.7411   35.9601        -0.7822         0.2244        -0.0116        -0.0208         0.0143         1.5862
     358462.002500      -2267408.342       5008839.641       3222008.196    -0.001     0.002    -0.001    0.5142    0.7440   35.9583        -0.7417         0.2049        -0.0113        -0.0208         0.0143         1.5853
     358463.002500      -2267408.348       5008839.644       3222008.202    -0.003    -0.000     0.001    0.5113    0.7434   35.9575        -0.5651         0.1939        -0.0113        -0.0208         0.0144         1.5847
     358464.002500      -2267408.349       5008839.646       3222008.208    -0.000    -0.001     0.002    0.5128    0.7420   35.9540        -0.5353         0.4175        -0.0155        -0.0208         0.0144         1.5862
     358465.002500      -2267408.350       5008839.645       3222008.210     0.002    -0.001     0.001    0.5164    0.7377   35.9554        -0.6508         0.4868        -0.0169        -0.0209         0.0143         1.5891
     358466.002500      -2267408.351       5008839.649       3222008.211     0.001     0.000    -0.002    0.5220    0.7401   35.9573        -0.7837         0.3399        -0.0149        -0.0208         0.0143         1.5886
     358467.002500      -2267408.351       5008839.647       3222008.208     0.002     0.000    -0.003    0.5209    0.7404   35.9590        -0.7535         0.2986        -0.0142        -0.0208         0.0143         1.5900
     358468.002500      -2267408.355       5008839.647       3222008.211    -0.001    -0.001    -0.002    0.5131    0.7402   35.9576        -0.5429         0.2703        -0.0130        -0.0208         0.0144         1.5892
     358469.002500      -2267408.359       5008839.651       3222008.211    -0.002     0.001    -0.002    0.5174    0.7458   35.9575        -0.6238         0.1926        -0.0121        -0.0208         0.0144         1.5871
     358470.002500      -2267408.358       5008839.650       3222008.212     0.000    -0.001    -0.002    0.5144    0.7430   35.9592        -0.5324         0.4032        -0.0161        -0.0208         0.0144         1.5901
     358471.002500      -2267408.357       5008839.648       3222008.210     0.001    -0.002    -0.003    0.5154    0.7394   35.9610        -0.5667         0.4465        -0.0167        -0.0209         0.0144         1.5927
     358472.002500      -2267408.356       5008839.649       3222008.212     0.002    -0.003    -0.002    0.5138    0.7405   35.9623        -0.5001         0.5003        -0.0182        -0.0209         0.0144         1.5930
     358473.002500      -2267408.356       5008839.653       3222008.213     0.002    -0.002    -0.003    0.5150    0.7394   35.9608        -0.5315         0.4849        -0.0178        -0.0209         0.0144         1.5930
     358474.002500      -2267408.353       5008839.655       3222008.214     0.004    -0.002    -0.002    0.5168    0.7385   35.9612        -0.4988         0.5951        -0.0202        -0.0209         0.0144         1.5945
     358475.002500      -2267408.353       5008839.661       3222008.218     0.003    -0.001    -0.001    0.5171    0.7398   35.9634        -0.4428         0.5334        -0.0188        -0.0209         0.0144         1.5924
     358476.002500      -2267408.355       5008839.668       3222008.222    -0.000    -0.001    -0.001    0.5160    0.7407   35.9646        -0.3773         0.3902        -0.0160        -0.0208         0.0144         1.5907
     358477.002500      -2267408.355       5008839.677       3222008.225     0.001     0.001    -0.002    0.5194    0.7288   35.9674        -0.4056         0.3641        -0.0158        -0.0208         0.0144         1.5897
     358478.002500      -2267408.351       5008839.683       3222008.229     0.001    -0.000    -0.000    0.5155    0.7239   35.9627        -0.3655         0.4413        -0.0176        -0.0208         0.0145         1.5896
     358479.002500      -2267408.349       5008839.688       3222008.235     0.001    -0.001    -0.000    0.5135    0.7271   35.9637        -0.2391         0.4418        -0.0179        -0.0208         0.0145         1.5896
     358480.002500      -2267408.348       5008839.694       3222008.239     0.001    -0.000     0.000    0.5138    0.7282   35.9627        -0.2088         0.3897        -0.0169        -0.0208         0.0145         1.5889
     358481.002500      -2267408.348       5008839.699       3222008.238    -0.000     0.000    -0.002    0.5137    0.7283   35.9649        -0.2907         0.2790        -0.0141        -0.0207         0.0145         1.5899
     358482.002500      -2267408.348       5008839.700       3222008.239    -0.001    -0.002    -0.002    0.5147    0.7283   35.9666        -0.1972         0.2270        -0.0134        -0.0207         0.0145         1.5915
     358483.002500      -2267408.345       5008839.704       3222008.243     0.002    -0.001    -0.001    0.5138    0.7247   35.9668        -0.1903         0.3876        -0.0171        -0.0207         0.0145         1.5912
     358484.002500      -2267408.342       5008839.705       3222008.240     0.002    -0.001    -0.003    0.5152    0.7268   35.9654        -0.2379         0.2936        -0.0144        -0.0207         0.0145         1.5926
     358485.002500      -2267408.339       5008839.705       3222008.242     0.003    -0.002    -0.001    0.5134    0.7272   35.9651        -0.1721         0.3629        -0.0166        -0.0206         0.0145         1.5938
     358486.002500      -2267408.336       5008839.709       3222008.241     0.003    -0.001    -0.004    0.5167    0.7292   35.9684        -0.2484         0.3185        -0.0148        -0.0206         0.0144         1.5936
     358487.002500      -2267408.339       5008839.714       3222008.247     0.000    -0.002    -0.001    0.5104    0.7299   35.9657        -0.0529         0.2715        -0.0163        -0.0207         0.0145         1.5915
     358488.002500      -2267408.340       5008839.714       3222008.250    -0.000    -0.003     0.000    0.5099    0.7292   35.9658         0.0025         0.2729        -0.0173        -0.0207         0.0145         1.5918
     358489.002500      -2267408.342       5008839.716       3222008.254     0.001    -0.002     0.001    0.5097    0.7250   35.9681        -0.0110         0.3078        -0.0182        -0.0207         0.0146         1.5912
     358490.002500      -2267408.343       5008839.716       3222008.257     0.000    -0.003     0.001    0.5087    0.7258   35.9694         0.0021         0.2750        -0.0171        -0.0207         0.0146         1.5917
     358491.002500      -2267408.344       5008839.721       3222008.260     0.001    -0.001     0.000    0.5100    0.7274   35.9675        -0.0998         0.2348        -0.0149        -0.0208         0.0145         1.5907
     358492.002500      -2267408.347       5008839.732       3222008.267     0.000     0.002     0.002    0.5121    0.7272   35.9631        -0.1490         0.2456        -0.0150        -0.0209         0.0146         1.5869
     358493.002500      -2267408.348       5008839.739       3222008.269    -0.000     0.003     0.001    0.5147    0.7296   35.9623        -0.2079         0.1866        -0.0126        -0.0209         0.0146         1.5863
     358494.002500      -2267408.348       5008839.743       3222008.268     0.000     0.004    -0.002    0.5185    0.7336   35.9631        -0.2762         0.1523        -0.0108        -0.0208         0.0145         1.5880
     358495.002500      -2267408.350       5008839.747       3222008.274     0.000     0.002     0.001    0.5128    0.7314   35.9631        -0.1287         0.2317        -0.0151        -0.0209         0.0146         1.5875
     358496.002500      -2267408.355       5008839.753       3222008.277    -0.001     0.003     0.001    0.5136    0.7316   35.9617        -0.1151         0.1598        -0.0147        -0.0209         0.0146         1.5871
     358497.002500      -2267408.358       5008839.759       3222008.282     0.001     0.003     0.002    0.5131    0.7313   35.9609        -0.1024         0.2545        -0.0165        -0.0210         0.0146         1.5866
     358498.002500      -2267408.361       5008839.762       3222008.284    -0.001     0.002     0.000    0.5135    0.7325   35.9583        -0.0728         0.1829        -0.0156        -0.0209         0.0146         1.5882
     358499.002500      -2267408.368       5008839.769       3222008.292    -0.002     0.002     0.003    0.5105    0.7316   35.9580         0.0387         0.1770        -0.0179        -0.0210         0.0147         1.5868
     358500.002500      -2267408.376       5008839.773       3222008.298    -0.004     0.001     0.003    0.5110    0.7322   35.9563         0.0832         0.0943        -0.0163        -0.0210         0.0147         1.5868
     358501.002500      -2267408.379       5008839.775       3222008.297    -0.003     0.002    -0.001    0.5144    0.7322   35.9553        -0.0288         0.0949        -0.0142        -0.0209         0.0146         1.5888
     358502.002500      -2267408.379       5008839.782       3222008.301     0.001     0.003     0.001    0.5147    0.7275   35.9559        -0.0644         0.2660        -0.0191        -0.0209         0.0146         1.5884
     358503.002500      -2267408.376       5008839.782       3222008.303     0.004     0.002     0.001    0.5129    0.7233   35.9557        -0.0269         0.3615        -0.0225        -0.0209         0.0145         1.5907
     358504.002500      -2267408.377       5008839.781       3222008.307     0.002    -0.001     0.002    0.5101    0.7267   35.9568         0.0710         0.2846        -0.0212        -0.0208         0.0145         1.5918
     358505.002500      -2267408.382       5008839.786       3222008.310     0.001     0.001     0.000    0.5128    0.7311   35.9558         0.0279         0.1579        -0.0176        -0.0208         0.0145         1.5907
     358506.002500      -2267408.383       5008839.783       3222008.310     0.001    -0.001    -0.000    0.5118    0.7324   35.9550         0.0662         0.1845        -0.0187        -0.0208         0.0145         1.5929
     358507.002500      -2267408.384       5008839.778       3222008.309     0.001    -0.003    -0.002    0.5114    0.7346   35.9554         0.0870         0.2060        -0.0199        -0.0207         0.0145         1.5952
     358508.002500      -2267408.387       5008839.774       3222008.306     0.000    -0.003    -0.004    0.5115    0.7372   35.9543         0.0635         0.1558        -0.0172        -0.0206         0.0145         1.5962
     358509.002500      -2267408.391       5008839.767       3222008.307    -0.002    -0.007    -0.002    0.5074    0.7355   35.9540         0.2021         0.1569        -0.0241        -0.0206         0.0145         1.5972
     358510.002500      -2267408.396       5008839.763       3222008.304    -0.003    -0.006    -0.003    0.5084    0.7380   35.9557         0.1551         0.1354        -0.0209        -0.0206         0.0145         1.5975
     358511.002500      -2267408.404       5008839.765       3222008.307    -0.005    -0.004    -0.002    0.5060    0.7410   35.9563         0.1491         0.1511        -0.0212        -0.0207         0.0145         1.5946
     358512.002500      -2267408.408       5008839.769       3222008.313    -0.004    -0.002     0.001    0.5057    0.7384   35.9543         0.1381         0.3178        -0.0293        -0.0208         0.0146         1.5921
     358513.002500      -2267408.414       5008839.774       3222008.320    -0.003    -0.000     0.002    0.5066    0.7326   35.9543         0.0897         0.4216        -0.0326        -0.0209         0.0146         1.5901
     358514.002500      -2267408.417       5008839.777       3222008.323    -0.002     0.001     0.002    0.5085    0.7322   35.9529         0.0270         0.4502        -0.0318        -0.0209         0.0146         1.5903
     358515.002500      -2267408.424       5008839.782       3222008.325    -0.004     0.002     0.000    0.5108    0.7354   35.9533        -0.0175         0.3897        -0.0281        -0.0209         0.0146         1.5899
     358516.002500      -2267408.426       5008839.783       3222008.329    -0.003     0.001     0.002    0.5076    0.7334   35.9534         0.0187         0.4836        -0.0317        -0.0209         0.0146         1.5906
     358517.002500      -2267408.427       5008839.782       3222008.327    -0.001    -0.000    -0.001    0.5115    0.7324   35.9545        -0.0646         0.5297        -0.0321        -0.0208         0.0145         1.5928
     358518.002500      -2267408.427       5008839.789       3222008.329     0.001     0.003    -0.000    0.5154    0.7333   35.9572        -0.1280         0.5895        -0.0331        -0.0209         0.0145         1.5916
     358519.002500      -2267408.428       5008839.798       3222008.335     0.000     0.003    -0.000    0.5164    0.7306   35.9569        -0.0919         0.6334        -0.0343        -0.0209         0.0146         1.5902
     358520.002500      -2267408.428       5008839.803       3222008.329     0.001     0.005    -0.005    0.5209    0.7312   35.9551        -0.2349         0.5687        -0.0325        -0.0209         0.0145         1.5921
     358521.002500      -2267408.428       5008839.802       3222008.328     0.003     0.002    -0.003    0.5167    0.7323   35.9563        -0.0813         0.5955        -0.0330        -0.0208         0.0145         1.5941
     358522.002500      -2267408.429       5008839.803       3222008.327     0.002     0.000    -0.004    0.5139    0.7326   35.9546        -0.0210         0.6175        -0.0337        -0.0208         0.0145         1.5949
     358523.002500      -2267408.436       5008839.809       3222008.334     0.001    -0.001     0.003    0.5003    0.7273   35.9576         0.0982         0.5586        -0.0335        -0.0209         0.0145         1.5928
     358524.002500      -2267408.439       5008839.816       3222008.339     0.001     0.001     0.002    0.4969    0.7308   35.9576         0.0767         0.6310        -0.0364        -0.0209         0.0146         1.5917
     358524.202500      -2267408.439       5008839.816       3222008.340    -0.002     0.000     0.001    0.4971    0.7285   35.9586         0.0767         0.6310        -0.0364        -0.0209         0.0146         1.5917
     358524.302500      -2267408.440       5008839.816       3222008.340    -0.002     0.001     0.001    0.4955    0.7322   35.9578         0.0767         0.6310        -0.0364        -0.0209         0.0146         1.5917
     358524.402500      -2267408.440       5008839.816       3222008.340     0.002     0.001     0.003    0.4969    0.7304   35.9561         0.0767         0.6310        -0.0364        -0.0209         0.0146         1.5917
     358524.502500      -2267408.439       5008839.816       3222008.340     0.002     0.001     0.003    0.4960    0.7254   35.9592         0.0767         0.6310        -0.0364        -0.0209         0.0146         1.5917
     358524.602500      -2267408.439       5008839.817       3222008.340    -0.002     0.002     0.001    0.4962    0.7243   35.9584         0.0767         0.6310        -0.0364        -0.0209         0.0146         1.5917
     358524.702500      -2267408.440       5008839.817       3222008.340    -0.003     0.001     0.001    0.4970    0.7289   35.9558         0.0767         0.6310        -0.0364        -0.0209         0.0146         1.5917
     358524.802500      -2267408.440       5008839.817       3222008.341    -0.002     0.000     0.001    0.4958    0.7324   35.9587         0.0767         0.6310        -0.0364        -0.0209         0.0146         1.5917
     358524.902500      -2267408.440       5008839.817       3222008.341     0.000     0.002     0.002    0.4974    0.7321   35.9601         0.0767         0.6310        -0.0364        -0.0209         0.0146         1.5917
     358525.002500      -2267408.444       5008839.822       3222008.344    -0.001     0.002     0.003    0.4982    0.7304   35.9592         0.0455         0.6293        -0.0350        -0.0210         0.0146         1.5910
     358525.102500      -2267408.444       5008839.822       3222008.344    -0.007     0.001     0.001    0.4951    0.7359   35.9611         0.0455         0.6293        -0.0350        -0.0210         0.0146         1.5910
     358525.202500      -2267408.445       5008839.822       3222008.344    -0.005     0.002    -0.001    0.4948    0.7476   35.9591         0.0455         0.6293        -0.0351        -0.0210         0.0146         1.5910
     358525.302500      -2267408.445       5008839.822       3222008.344     0.003     0.001     0.004    0.4937    0.7464   35.9582         0.0454         0.6292        -0.0298        -0.0210         0.0146         1.5910
     358525.402500      -2267408.444       5008839.822       3222008.344     0.004     0.002     0.004    0.4953    0.7322   35.9591         0.0454         0.6292        -0.0298        -0.0210         0.0146         1.5910
     358525.502500      -2267408.444       5008839.823       3222008.345    -0.001     0.003     0.000    0.4993    0.7242   35.9596         0.0454         0.6292        -0.0298        -0.0210         0.0146         1.5910
     358525.602500      -2267408.445       5008839.823       3222008.344    -0.006     0.003    -0.003    0.4988    0.7291   35.9580         0.0454         0.6292        -0.0298        -0.0210         0.0146         1.5910
     358525.702500      -2267408.445       5008839.823       3222008.344    -0.007     0.004    -0.002    0.4989    0.7419   35.9584         0.0454         0.6292        -0.0298        -0.0210         0.0146         1.5910
     358525.802500      -2267408.445       5008839.824       3222008.344     0.003    -0.002     0.003    0.4963    0.7415   35.9606         0.0454         0.6292        -0.0298        -0.0210         0.0146         1.5910
     358525.902500      -2267408.445       5008839.823       3222008.345     0.003     0.000     0.007    0.4985    0.7301   35.9603         0.0454         0.6292        -0.0298        -0.0210         0.0146         1.5910
     358526.002500      -2267408.448       5008839.828       3222008.350    -0.004     0.002     0.007    0.5031    0.7178   35.9572         0.0414         0.6559        -0.0317        -0.0210         0.0147         1.5901
     358526.102500      -2267408.449       5008839.829       3222008.350    -0.009     0.001     0.002    0.4910    0.7262   35.9580         0.0416         0.6552        -0.0303        -0.0210         0.0146         1.5901
     358526.202500      -2267408.449       5008839.829       3222008.350    -0.003     0.003     0.000    0.4909    0.7362   35.9593         0.0416         0.6552        -0.0303        -0.0210         0.0146         1.5901
     358526.302500      -2267408.450       5008839.829       3222008.350     0.000     0.003     0.002    0.4974    0.7366   35.9578         0.0414         0.6559        -0.0316        -0.0210         0.0147         1.5901
     358526.402500      -2267408.449       5008839.829       3222008.351    -0.000     0.003     0.003    0.4955    0.7308   35.9565         0.0414         0.6559        -0.0316        -0.0210         0.0147         1.5901
     358526.502500      -2267408.450       5008839.830       3222008.351    -0.004     0.003     0.001    0.4975    0.7313   35.9587         0.0414         0.6556        -0.0309        -0.0210         0.0146         1.5901
     358526.602500      -2267408.450       5008839.830       3222008.351    -0.004     0.002     0.003    0.4988    0.7341   35.9594         0.0415         0.6548        -0.0264        -0.0210         0.0146         1.5901
     358526.702500      -2267408.450       5008839.830       3222008.351    -0.002     0.003     0.003    0.4953    0.7344   35.9571         0.0416         0.6553        -0.0277        -0.0210         0.0146         1.5902
     358526.802500      -2267408.451       5008839.830       3222008.352    -0.002     0.002     0.003    0.4979    0.7311   35.9581         0.0418         0.6553        -0.0279        -0.0210         0.0146         1.5902
     358526.902500      -2267408.451       5008839.830       3222008.352    -0.004     0.001     0.003    0.4958    0.7324   35.9605         0.0419         0.6549        -0.0268        -0.0210         0.0146         1.5902
     358527.002500      -2267408.456       5008839.833       3222008.353    -0.007     0.003     0.001    0.4945    0.7353   35.9596         0.0477         0.5838        -0.0245        -0.0210         0.0146         1.5901
     358527.102500      -2267408.457       5008839.833       3222008.353    -0.004     0.001     0.002    0.4962    0.7364   35.9585         0.0475         0.5842        -0.0251        -0.0210         0.0146         1.5901
     358527.202500      -2267408.457       5008839.833       3222008.353    -0.006     0.002     0.001    0.4937    0.7347   35.9606         0.0476         0.5842        -0.0267        -0.0210         0.0146         1.5901
     358527.302500      -2267408.455       5008839.829       3222008.350    -0.004     0.001     0.000    0.4991    0.7325   35.9594         0.0473         0.6196        -0.0830        -0.0207         0.0143         1.5926
     358527.402500      -2267408.455       5008839.829       3222008.350    -0.004    -0.001     0.001    0.4968    0.7344   35.9597         0.0474         0.6196        -0.0836        -0.0207         0.0143         1.5926
     358527.502500      -2267408.455       5008839.829       3222008.350    -0.002    -0.001     0.001    0.4968    0.7303   35.9599         0.0476         0.6198        -0.0858        -0.0207         0.0143         1.5926
     358527.602500      -2267408.456       5008839.829       3222008.350    -0.004    -0.000     0.001    0.4977    0.7298   35.9602         0.0476         0.6198        -0.0865        -0.0207         0.0143         1.5926
     358527.702500      -2267408.456       5008839.829       3222008.350    -0.006    -0.000    -0.002    0.4963    0.7340   35.9587         0.0477         0.6200        -0.0870        -0.0207         0.0143         1.5926
     358527.802500      -2267408.457       5008839.828       3222008.350    -0.004    -0.001     0.000    0.4982    0.7346   35.9596         0.0478         0.6201        -0.0909        -0.0207         0.0143         1.5926
     358527.902500      -2267408.457       5008839.828       3222008.351    -0.003    -0.001     0.002    0.4961    0.7328   35.9600         0.0480         0.6203        -0.0914        -0.0207         0.0143         1.5927
     358528.002500      -2267408.457       5008839.834       3222008.352    -0.004     0.001    -0.001    0.4998    0.7301   35.9605        -0.0187         0.6597        -0.0795        -0.0208         0.0142         1.5928
     358528.102500      -2267408.458       5008839.834       3222008.351    -0.003    -0.000    -0.002    0.4979    0.7316   35.9612        -0.0187         0.6597        -0.0795        -0.0208         0.0142         1.5928
     358528.202500      -2267408.458       5008839.834       3222008.351    -0.002     0.001    -0.001    0.4983    0.7324   35.9655        -0.0182         0.6578         0.0275        -0.0208         0.0142         1.5928
     358528.302500      -2267408.458       5008839.834       3222008.351    -0.002     0.001     0.001    0.5015    0.7295   35.9633        -0.0182         0.6582         0.0214        -0.0208         0.0142         1.5928
     358528.402500      -2267408.458       5008839.834       3222008.351    -0.004    -0.001     0.000    0.4993    0.7306   35.9639        -0.0181         0.6583         0.0180        -0.0208         0.0142         1.5928
     358528.502500      -2267408.459       5008839.834       3222008.351    -0.005     0.000    -0.000    0.5007    0.7327   35.9637        -0.0173         0.6589         0.0073        -0.0208         0.0142         1.5928
     358528.602500      -2267408.459       5008839.834       3222008.351     0.001     0.003    -0.005    0.4940    0.7351   35.9615        -0.0173         0.6593        -0.0026        -0.0208         0.0142         1.5928
     358528.702500      -2267408.459       5008839.834       3222008.351    -0.000     0.000    -0.002    0.4819    0.7305   35.9629        -0.0198         0.6595        -0.0101        -0.0208         0.0142         1.5927
     358528.802500      -2267408.460       5008839.834       3222008.351    -0.002     0.004    -0.004    0.4870    0.7294   35.9674        -0.0212         0.6589        -0.0124        -0.0208         0.0142         1.5927
     358528.902500      -2267408.460       5008839.834       3222008.351    -0.004     0.003    -0.003    0.4995    0.7326   35.9672        -0.0192         0.6593        -0.0141        -0.0208         0.0142         1.5928
     358529.002500      -2267408.460       5008839.839       3222008.357    -0.002     0.000     0.002    0.5111    0.7333   35.9673        -0.0068         0.7657         0.0173        -0.0209         0.0143         1.5925
     358529.102500      -2267408.460       5008839.839       3222008.357     0.000    -0.002     0.005    0.5095    0.7320   35.9678        -0.0075         0.7660         0.0262        -0.0209         0.0143         1.5924
     358529.202500      -2267408.460       5008839.839       3222008.357    -0.001    -0.002     0.003    0.4940    0.7288   35.9670        -0.0075         0.7660         0.0262        -0.0209         0.0143         1.5924
     358529.302500      -2267408.460       5008839.839       3222008.357    -0.002     0.001     0.001    0.4838    0.7280   35.9665        -0.0089         0.7661         0.0267        -0.0209         0.0143         1.5924
     358529.402500      -2267408.460       5008839.839       3222008.358    -0.002     0.002     0.002    0.4880    0.7298   35.9677        -0.0089         0.7661         0.0267        -0.0209         0.0143         1.5924
     358529.502500      -2267408.460       5008839.839       3222008.358    -0.001     0.002     0.002    0.4996    0.7311   35.9674        -0.0079         0.7660         0.0265        -0.0209         0.0143         1.5924
     358529.602500      -2267408.460       5008839.839       3222008.358    -0.001     0.000     0.003    0.5043    0.7310   35.9668        -0.0079         0.7660         0.0265        -0.0209         0.0143         1.5924
     358529.702500      -2267408.460       5008839.839       3222008.358    -0.001    -0.001     0.003    0.4987    0.7286   35.9677        -0.0071         0.7661         0.0342        -0.0209         0.0143         1.5924
     358529.802500      -2267408.461       5008839.839       3222008.358    -0.002    -0.001     0.002    0.4938    0.7298   35.9676        -0.0068         0.7659         0.0344        -0.0209         0.0143         1.5925
     358529.902500      -2267408.461       5008839.839       3222008.359    -0.001     0.000     0.003    0.4939    0.7301   35.9670        -0.0073         0.7660         0.0341        -0.0209         0.0143         1.5924
     358530.002500      -2267408.461       5008839.843       3222008.359     0.002     0.002     0.001    0.4990    0.7274   35.9675        -0.0971         0.8187         0.0463        -0.0209         0.0143         1.5928
     358530.102500      -2267408.461       5008839.843       3222008.359     0.002     0.002     0.001    0.5024    0.7280   35.9680        -0.0967         0.8185         0.0464        -0.0209         0.0143         1.5928
     358530.202500      -2267408.461       5008839.843       3222008.359     0.000     0.002     0.000    0.5044    0.7299   35.9656        -0.0967         0.8185         0.0464        -0.0209         0.0143         1.5928
     358530.302500      -2267408.460       5008839.844       3222008.359     0.002    -0.000     0.002    0.5001    0.7309   35.9689        -0.0969         0.8183         0.0481        -0.0209         0.0143         1.5928
     358530.402500      -2267408.460       5008839.844       3222008.359     0.002     0.001     0.000    0.4968    0.7305   35.9688        -0.0969         0.8183         0.0481        -0.0209         0.0143         1.5928
     358530.502500      -2267408.460       5008839.844       3222008.359     0.002     0.001     0.002    0.5007    0.7290   35.9674        -0.0970         0.8181         0.0495        -0.0209         0.0143         1.5928
     358530.602500      -2267408.460       5008839.844       3222008.359     0.001     0.002     0.001    0.5024    0.7299   35.9689        -0.0970         0.8181         0.0495        -0.0209         0.0143         1.5928
     358530.702500      -2267408.460       5008839.844       3222008.359     0.003     0.000    -0.000    0.5032    0.7289   35.9700        -0.0969         0.8179         0.0502        -0.0209         0.0143         1.5928
     358530.802500      -2267408.460       5008839.844       3222008.360     0.003    -0.000     0.001    0.5041    0.7295   35.9679        -0.0969         0.8179         0.0502        -0.0209         0.0143         1.5928
     358530.902500      -2267408.459       5008839.844       3222008.360     0.001    -0.000     0.000    0.5007    0.7291   35.9699        -0.0966         0.8172         0.0539        -0.0209         0.0143         1.5928
     358531.002500      -2267408.465       5008839.848       3222008.362     0.001     0.002     0.001    0.5018    0.7308   35.9703        -0.1102         0.8115         0.0596        -0.0209         0.0143         1.5926
     358531.102500      -2267408.464       5008839.848       3222008.362     0.002     0.002     0.000    0.5051    0.7311   35.9703        -0.1102         0.8115         0.0593        -0.0209         0.0143         1.5926
     358531.202500      -2267408.464       5008839.848       3222008.362     0.002     0.001    -0.000    0.5039    0.7320   35.9704        -0.1100         0.8115         0.0577        -0.0209         0.0143         1.5926
     358531.302500      -2267408.464       5008839.848       3222008.362    -0.001     0.002     0.001    0.5059    0.7316   35.9655        -0.1101         0.8116         0.0575        -0.0209         0.0143         1.5926
     358531.402500      -2267408.464       5008839.849       3222008.362     0.001     0.001     0.002    0.5048    0.7337   35.9630        -0.1098         0.8114         0.0590        -0.0209         0.0143         1.5926
     358531.502500      -2267408.464       5008839.849       3222008.363     0.002     0.001     0.002    0.5053    0.7316   35.9681        -0.1097         0.8111         0.0601        -0.0209         0.0143         1.5926
     358531.602500      -2267408.464       5008839.849       3222008.363     0.001    -0.002     0.002    0.5136    0.7324   35.9720        -0.1092         0.8112         0.0763        -0.0209         0.0143         1.5926
     358531.702500      -2267408.464       5008839.848       3222008.363     0.003    -0.001    -0.000    0.5191    0.7319   35.9727        -0.1092         0.8113         0.0755        -0.0209         0.0143         1.5926
     358531.802500      -2267408.463       5008839.848       3222008.363     0.003     0.001    -0.001    0.5268    0.7304   35.9764        -0.1092         0.8113         0.0755        -0.0209         0.0143         1.5926
     358531.902500      -2267408.463       5008839.849       3222008.363     0.001    -0.001     0.002    0.5364    0.7354   35.9869        -0.1095         0.8108         0.0774        -0.0209         0.0143         1.5926
     358532.002500      -2267408.469       5008839.849       3222008.364    -0.003     0.003     0.001    0.5351    0.7402   35.9893        -0.1080         0.8000         0.0753        -0.0209         0.0143         1.5931
     358532.102500      -2267408.469       5008839.849       3222008.364    -0.000     0.006    -0.001    0.5142    0.7484   35.9843        -0.1066         0.7993         0.1021        -0.0209         0.0143         1.5931
     358532.202500      -2267408.469       5008839.849       3222008.364     0.000    -0.003     0.005    0.5250    0.7488   35.9884        -0.1061         0.7990         0.0980        -0.0209         0.0143         1.5932
     358532.302500      -2267408.469       5008839.848       3222008.365    -0.007    -0.026     0.021    0.5559    0.7527   36.0003        -0.1066         0.7985         0.1009        -0.0209         0.0143         1.5931
     358532.402500      -2267408.471       5008839.844       3222008.369    -0.022    -0.048     0.047    0.5867    0.7573   36.0006        -0.1066         0.7985         0.1009        -0.0209         0.0143         1.5931
     358532.502500      -2267408.473       5008839.838       3222008.375    -0.036    -0.074     0.084    0.6136    0.7601   35.9950        -0.1053         0.7978         0.0960        -0.0209         0.0143         1.5932
     358532.602500      -2267408.478       5008839.829       3222008.385    -0.052    -0.100     0.119    0.6257    0.7615   36.0030        -0.1048         0.7978         0.0865        -0.0209         0.0143         1.5932
     358532.702500      -2267408.484       5008839.818       3222008.399    -0.067    -0.125     0.149    0.6184    0.7649   36.0059        -0.1048         0.7969         0.0863        -0.0209         0.0143         1.5932
     358532.802500      -2267408.491       5008839.804       3222008.415    -0.079    -0.150     0.174    0.6187    0.7709   35.9994        -0.1048         0.7969         0.0863        -0.0209         0.0143         1.5932
     358532.902500      -2267408.500       5008839.788       3222008.434    -0.088    -0.174     0.202    0.6331    0.7758   35.9944        -0.1056         0.7951         0.0869        -0.0209         0.0143         1.5932
     358533.002500      -2267408.509       5008839.772       3222008.453    -0.098    -0.198     0.231    0.6496    0.7754   35.9375        -0.2187         0.8373        -0.0512        -0.0201         0.0163         1.5942
     358533.102500      -2267408.519       5008839.750       3222008.477    -0.112    -0.223     0.260    0.6604    0.7783   35.9286        -0.2186         0.8374        -0.0516        -0.0201         0.0163         1.5942
     358533.202500      -2267408.531       5008839.727       3222008.505    -0.125    -0.249     0.289    0.6690    0.7794   35.9142        -0.2186         0.8374        -0.0516        -0.0201         0.0163         1.5942
     358533.302500      -2267408.544       5008839.700       3222008.535    -0.139    -0.275     0.317    0.6806    0.7885   35.9046        -0.2167         0.8368         0.0378        -0.0200         0.0163         1.5942
     358533.402500      -2267408.559       5008839.672       3222008.568    -0.151    -0.301     0.348    0.6964    0.7988   35.8947        -0.2167         0.8367         0.0436        -0.0200         0.0163         1.5942
     358533.502500      -2267408.574       5008839.639       3222008.604    -0.163    -0.328     0.379    0.7025    0.7990   35.8799        -0.2057         0.8355         0.1224        -0.0200         0.0161         1.5945
     358533.602500      -2267408.591       5008839.605       3222008.644    -0.175    -0.353     0.410    0.7133    0.8091   35.8629        -0.2057         0.8355         0.1224        -0.0200         0.0161         1.5945
     358533.702500      -2267408.610       5008839.569       3222008.686    -0.190    -0.382     0.439    0.7311    0.8118   35.8443        -0.2051         0.8367         0.1179        -0.0200         0.0161         1.5945
     358533.802500      -2267408.630       5008839.529       3222008.732    -0.206    -0.420     0.476    0.7658    0.8308   35.8269        -0.2064         0.8381         0.1065        -0.0200         0.0161         1.5944
     358533.902500      -2267408.651       5008839.485       3222008.782    -0.227    -0.465     0.526    0.8110    0.8460   35.8047        -0.2064         0.8381         0.1060        -0.0200         0.0161         1.5944
     358534.002500      -2267408.674       5008839.456       3222008.869    -0.236    -0.515     0.610    0.8727    0.8495   34.7541        -0.2574         0.9201        -1.8265         0.0017        -0.0084         1.5878
     358534.102500      -2267408.699       5008839.402       3222008.934    -0.269    -0.580     0.691    0.9443    0.8561   34.7266        -0.2578         0.9200        -1.8267         0.0017        -0.0084         1.5878
     358534.202500      -2267408.728       5008839.340       3222009.007    -0.307    -0.650     0.781    1.0034    0.8591   34.6936        -0.2578         0.9200        -1.8267         0.0017        -0.0084         1.5878
     358534.302500      -2267408.761       5008839.272       3222009.090    -0.346    -0.721     0.872    1.0349    0.8641   34.6589        -0.2571         0.9197        -1.8273         0.0017        -0.0084         1.5878
     358534.402500      -2267408.797       5008839.196       3222009.182    -0.376    -0.787     0.959    1.0366    0.8591   34.6247        -0.2571         0.9197        -1.8273         0.0017        -0.0084         1.5878
     358534.502500      -2267408.836       5008839.113       3222009.281    -0.403    -0.848     1.038    1.0213    0.8331   34.6007        -0.2445         0.9181        -1.7918         0.0008        -0.0100         1.5880
     358534.602500      -2267408.877       5008839.026       3222009.388    -0.432    -0.904     1.104    1.0058    0.8052   34.6020        -0.2442         0.9170        -1.7934         0.0008        -0.0100         1.5880
     358534.702500      -2267408.921       5008838.931       3222009.500    -0.457    -0.952     1.157    0.9802    0.7722   34.6174        -0.2265         0.9073        -1.8126        -0.0005        -0.0121         1.5886
     358534.802500      -2267408.968       5008838.833       3222009.618    -0.481    -0.991     1.202    0.9376    0.7389   34.6724        -0.2202         0.9050        -1.6700        -0.0012        -0.0126         1.5887
     358534.902500      -2267409.017       5008838.732       3222009.740    -0.499    -1.020     1.235    0.8952    0.7062   34.7641        -0.2178         0.9012        -1.6178        -0.0014        -0.0127         1.5888
     358535.002500      -2267409.059       5008838.620       3222009.869    -0.498    -1.044     1.262    0.8631    0.6757   34.2903        -0.2775         0.8104        -3.2156         0.0055         0.0426         1.5913
     358535.102500      -2267409.110       5008838.514       3222009.996    -0.517    -1.065     1.276    0.8446    0.6484   34.4697        -0.2756         0.8033        -3.1647         0.0054         0.0414         1.5913
     358535.202500      -2267409.163       5008838.407       3222010.124    -0.541    -1.076     1.288    0.8226    0.6450   34.6840        -0.2757         0.8032        -3.1674         0.0055         0.0415         1.5913
     358535.302500      -2267409.218       5008838.299       3222010.253    -0.563    -1.087     1.294    0.8006    0.6616   34.8959        -0.2816         0.7859        -3.0829         0.0061         0.0425         1.5913
     358535.402500      -2267409.275       5008838.189       3222010.383    -0.578    -1.108     1.301    0.7900    0.6933   35.1630        -0.2823         0.7846        -3.0900         0.0065         0.0429         1.5913
     358535.502500      -2267409.333       5008838.077       3222010.513    -0.598    -1.126     1.313    0.7912    0.7411   35.4375        -0.2825         0.7620        -3.0686         0.0064         0.0444         1.5913
     358535.602500      -2267409.394       5008837.964       3222010.645    -0.617    -1.145     1.327    0.7955    0.7944   35.7155        -0.2849         0.7452        -2.9720         0.0068         0.0452         1.5913
     358535.702500      -2267409.457       5008837.848       3222010.779    -0.634    -1.172     1.347    0.8024    0.8461   36.0053        -0.2848         0.7450        -2.9743         0.0068         0.0452         1.5913
     358535.802500      -2267409.520       5008837.729       3222010.915    -0.639    -1.194     1.375    0.8114    0.8645   36.2772        -0.2805         0.7167        -2.9321         0.0063         0.0448         1.5914
     358535.902500      -2267409.585       5008837.609       3222011.054    -0.651    -1.211     1.398    0.8198    0.8574   36.5520        -0.2907         0.6770        -2.9347         0.0090         0.0491         1.5911
     358536.002500      -2267409.663       5008837.470       3222011.165    -0.675    -1.239     1.407    0.8176    0.8163   37.3514        -0.4167         0.7022        -1.3750         0.0122         0.2164         1.5958
     358536.102500      -2267409.732       5008837.345       3222011.306    -0.703    -1.261     1.420    0.8144    0.7802   37.6821        -0.4096         0.7081        -1.4544         0.0111         0.2138         1.5959
     358536.202500      -2267409.803       5008837.219       3222011.449    -0.726    -1.282     1.432    0.8148    0.7550   37.9810        -0.4149         0.6848        -1.4592         0.0123         0.2181         1.5957
     358536.302500      -2267409.878       5008837.090       3222011.593    -0.759    -1.301     1.443    0.8248    0.7552   38.2871        -0.4271         0.6546        -1.2372         0.0137         0.2252         1.5954
     358536.402500      -2267409.955       5008836.960       3222011.739    -0.784    -1.308     1.466    0.8172    0.7686   38.6353        -0.4304         0.6628        -1.2379         0.0140         0.2329         1.5950
     358536.502500      -2267410.035       5008836.829       3222011.887    -0.803    -1.327     1.486    0.8051    0.7632   38.9418        -0.4388         0.6333        -1.0886         0.0152         0.2373         1.5948
     358536.602500      -2267410.116       5008836.694       3222012.036    -0.821    -1.354     1.495    0.8032    0.7563   39.2779        -0.4387         0.6263        -1.1039         0.0151         0.2371         1.5948
     358536.702500      -2267410.199       5008836.558       3222012.186    -0.842    -1.375     1.502    0.8336    0.7501   39.6130        -0.4444         0.6083        -1.0478         0.0157         0.2400         1.5947
     358536.802500      -2267410.285       5008836.419       3222012.337    -0.878    -1.397     1.517    0.8699    0.7568   39.9609        -0.4428         0.6030        -1.0697         0.0152         0.2397         1.5947
     358536.902500      -2267410.375       5008836.280       3222012.490    -0.902    -1.418     1.535    0.8834    0.7798   40.2986        -0.4552         0.5822        -1.1795         0.0169         0.2472         1.5943
     358537.002500      -2267410.488       5008836.155       3222012.656    -0.933    -1.436     1.552    0.9111    0.7893   40.7951        -0.4211         0.4703        -0.5550         0.0034        -0.0048         1.5892
     358537.102500      -2267410.583       5008836.011       3222012.812    -0.961    -1.462     1.569    0.9279    0.7927   41.1634        -0.4242         0.4542        -0.5219         0.0037        -0.0027         1.5891
     358537.202500      -2267410.681       5008835.863       3222012.970    -0.987    -1.490     1.586    0.9482    0.7833   41.5480        -0.4216         0.4535        -0.5242         0.0033        -0.0041         1.5892
     358537.302500      -2267410.782       5008835.713       3222013.130    -1.033    -1.514     1.600    0.9665    0.8121   41.9097        -0.4223         0.4229        -0.7746         0.0039         0.0017         1.5889
     358537.402500      -2267410.888       5008835.562       3222013.292    -1.064    -1.536     1.628    0.9605    0.8300   42.2900        -0.4275         0.4086        -0.7875         0.0041         0.0096         1.5884
     358537.502500      -2267410.996       5008835.408       3222013.456    -1.093    -1.558     1.641    0.9477    0.8563   42.6744        -0.4288         0.3882        -0.9141         0.0037         0.0174         1.5879
     358537.602500      -2267411.107       5008835.251       3222013.622    -1.111    -1.580     1.665    0.9435    0.8536   43.0519        -0.4283         0.3742        -0.9976         0.0042         0.0196         1.5878
     358537.702500      -2267411.219       5008835.092       3222013.789    -1.135    -1.601     1.683    0.9561    0.7992   43.4378        -0.4266         0.3764        -1.0024         0.0043         0.0205         1.5877
     358537.802500      -2267411.334       5008834.931       3222013.958    -1.170    -1.619     1.698    0.9532    0.7664   43.8307        -0.4261         0.3783        -0.9944         0.0045         0.0201         1.5878
     358537.902500      -2267411.453       5008834.769       3222014.129    -1.197    -1.629     1.706    0.9369    0.7150   44.2388        -0.4267         0.3804        -0.9713         0.0047         0.0225         1.5876
     358538.002500      -2267411.585       5008834.609       3222014.324    -1.241    -1.652     1.715    0.9075    0.6977   44.5874        -0.0506         0.3229        -1.2470         0.1117        -0.1450         1.5856
     358538.102500      -2267411.710       5008834.442       3222014.495    -1.271    -1.677     1.708    0.8992    0.6958   44.9946        -0.0477         0.3343        -1.1924         0.1118        -0.1437         1.5855
     358538.202500      -2267411.840       5008834.274       3222014.666    -1.306    -1.688     1.711    0.9132    0.7457   45.3760        -0.0503         0.3173        -1.2163         0.1123        -0.1421         1.5854
     358538.302500      -2267411.971       5008834.105       3222014.838    -1.330    -1.704     1.720    0.9100    0.7574   45.7958        -0.0487         0.3343        -1.1118         0.1127        -0.1379         1.5853
